,City,Cloudiness,Country,Date,Humidity,Latitude,Longitude,Max Temp,Wind Speed
0,mataura,13,NZ,1627354377,70,-46.1927,168.8643,52.48,4.74
1,khatanga,99,RU,1627354377,52,71.9667,102.5,72.72,18.72
2,sabzevar,0,IR,1627354377,30,36.2126,57.6819,84.06,19.13
3,kodiak,75,US,1627354378,59,57.79,-152.4072,62.11,4.61
4,mecca,79,SA,1627354336,46,21.4267,39.8261,82.99,4.36
5,vila franca do campo,22,PT,1627354378,91,42.0304,-8.1588,52.93,2.37
6,rikitea,98,PF,1627354378,81,-23.1203,-134.9692,74.98,18.41
7,butaritari,41,KI,1627354379,74,3.0707,172.7902,82.44,5.88
8,alta floresta,14,NO,1627354379,82,69.9689,23.2717,56.46,5.01
9,luderitz,0,NA,1627354251,67,-26.6481,15.1594,58.91,6.8
10,dwarka,100,IN,1627354379,83,22.2394,68.9678,83.05,24.29
11,busselton,96,AU,1627354380,57,-33.65,115.3333,55.04,25.19
12,barrow,90,US,1627354380,93,71.2906,-156.7887,46.42,8.05
13,tuatapere,14,NZ,1627354380,62,-46.1333,167.6833,52.83,4.97
14,cape town,0,CL,1627354380,83,-36.413,-71.9028,40.42,10.22
15,albany,0,US,1627354292,82,42.6001,-73.9662,70.03,4.12
16,plouzane,90,FR,1627354381,94,48.3833,-4.6167,61.12,8.05
17,hermanus,2,ZA,1627354381,65,-34.4187,19.2345,54.9,11.01
18,new norfolk,100,LR,1627354381,95,6.6518,-10.5932,72.84,4.72
19,portland,40,US,1627354053,48,45.5234,-122.6762,85.95,1.99
20,nikolskoye,7,RU,1627354260,70,59.7035,30.7861,65.8,3.6
21,vaini,75,TO,1627354382,88,-21.2,-175.2,77.16,11.5
22,ushuaia,75,AR,1627354290,86,-54.8,-68.3,33.46,5.75
23,saint-philippe,83,RE,1627354382,84,-21.3585,55.7679,65.79,9.15
24,beloha,57,MG,1627354382,71,-25.1667,45.05,60.89,14.36
25,chuy,0,UY,1627354383,85,-33.6971,-53.4616,45.37,7.83
26,namwala,100,ZM,1627354383,60,-15.7504,26.4384,49.01,5.01
27,punta arenas,100,PH,1627354383,57,8.9897,125.34,88.99,3.02
28,carnarvon,17,AU,1627354384,58,-24.8667,113.6333,71.67,14.97
29,codrington,100,AU,1627354384,62,-38.2667,141.9667,56.77,23.42
30,belmonte,3,BR,1627354384,83,-15.8631,-38.8828,68.5,3.89
31,fairview,0,US,1627354384,57,40.8126,-73.999,80.55,5.01
32,hobart,75,AU,1627354385,57,-42.8794,147.3294,61.27,4.0
33,torbay,1,CA,1627354385,91,47.6666,-52.7314,56.75,6.91
34,mys shmidta,66,RU,1627354385,91,62.0589,48.6201,45.66,7.65
35,gat,0,IL,1627354386,86,31.61,34.7642,77.4,3.78
36,stephenville,1,US,1627354386,60,32.2207,-98.2023,86.25,3.44
37,pundaguitan,97,PH,1627354386,75,6.3711,126.1689,84.51,17.9
38,dingle,45,PH,1627354386,62,10.9995,122.6711,88.66,18.1
39,kapaa,89,US,1627354387,70,22.0752,-159.319,80.11,1.99
40,thompson,20,CA,1627354354,48,55.7435,-97.8558,66.36,3.44
41,hithadhoo,100,MV,1627354387,73,-0.6,73.0833,81.21,5.21
42,dikson,100,RU,1627354216,99,73.5069,80.5464,38.7,8.95
43,mahbubabad,96,IN,1627354387,75,17.6167,80.0167,80.64,12.91
44,orissaare,100,EE,1627354388,73,58.5592,23.0826,71.94,11.59
45,carbonia,94,IT,1627354388,85,39.1672,8.5222,76.86,3.69
46,ipixuna,53,BR,1627354388,83,-1.7625,-48.8043,78.75,3.67
47,tautira,22,PF,1627354389,77,-17.7333,-149.15,82.42,7.9
48,avarua,40,CK,1627354343,73,-21.2078,-159.775,77.05,6.91
49,lebu,55,CL,1627354389,79,-37.6167,-73.65,45.07,16.89
50,castro,61,BR,1627354389,60,-24.7911,-50.0119,58.21,5.14
51,nanortalik,67,GL,1627354327,88,60.1432,-45.2371,45.3,11.16
52,olafsvik,96,IS,1627354390,84,64.8945,-23.7142,50.29,12.8
53,longyearbyen,100,SJ,1627354390,88,78.2186,15.6401,42.87,0.98
54,lulea,90,SE,1627354390,88,65.5842,22.1547,62.67,3.44
55,korla,0,CN,1627354390,17,41.7597,86.1469,91.83,11.45
56,nyurba,0,RU,1627354391,47,63.2842,118.3319,84.22,5.75
57,shingu,73,JP,1627354257,57,33.7333,135.9833,85.19,4.27
58,phalia,100,PK,1627354391,80,32.4297,73.5775,84.97,10.47
59,arraial do cabo,0,BR,1627354391,46,-22.8362,-46.646,65.61,5.66
60,emerald,0,AU,1627354392,37,-23.5333,148.1667,71.74,9.22
61,bredasdorp,6,ZA,1627354392,81,-34.5322,20.0403,42.12,2.3
62,souillac,75,MU,1627354392,88,-20.5167,57.5167,68.38,10.36
63,fort nelson,19,NL,1627354392,95,52.6517,6.3861,64.96,7.45
64,dingtao,99,CN,1627354393,83,35.0683,115.5625,81.88,10.22
65,jinzhou,81,CN,1627354393,70,41.1078,121.1417,84.42,9.6
66,xining,93,CN,1627354393,64,36.6167,101.7667,64.29,7.56
67,namibe,0,AO,1627354394,80,-15.1961,12.1522,63.9,3.76
68,yellowknife,75,CA,1627354394,88,62.456,-114.3525,59.32,1.99
69,narsaq,82,GL,1627354303,81,60.9167,-46.05,49.68,6.49
70,tasiilaq,27,GL,1627354394,89,65.6145,-37.6368,35.08,5.61
71,grand gaube,24,US,1627354394,28,38.8755,-109.5012,86.59,4.16
72,jamestown,1,US,1627354395,68,42.097,-79.2353,71.24,4.23
73,mar del plata,31,ES,1627354395,93,43.4002,-4.0094,64.38,1.01
74,oga,100,IT,1627354395,95,46.4631,10.347,54.68,1.45
75,paciran,5,ID,1627354395,58,-6.8767,112.3761,82.44,3.56
76,along,100,IN,1627354396,99,28.1667,94.7667,76.1,0.09
77,cidreira,100,BR,1627354305,98,-30.1811,-50.2056,62.35,8.95
78,miri,40,MY,1627354396,66,4.4148,114.0089,87.94,6.91
79,oranjemund,0,NA,1627354396,60,-28.55,16.4333,58.03,7.31
80,port alfred,9,CD,1627354397,54,-7.0349,29.7638,65.1,4.14
81,tual,50,ID,1627354397,77,-5.6667,132.75,81.52,17.0
82,hohhot,20,CN,1627354397,49,40.8106,111.6522,73.69,8.95
83,kavaratti,100,IN,1627354397,79,10.5669,72.642,81.41,19.69
84,labuhan,6,ID,1627354398,56,-6.8844,112.2051,83.43,3.47
85,sao filipe,100,IN,1627354398,75,20.5113,76.2129,75.56,17.45
86,zhuanghe,64,CN,1627354398,65,39.7008,122.9911,84.07,3.0
87,buraydah,100,SA,1627354310,18,26.326,43.975,93.65,10.85
88,upernavik,100,GL,1627354399,90,72.7868,-56.1549,46.18,9.42
89,ahipara,3,NZ,1627354399,68,-35.1667,173.1667,57.9,16.15
90,leningradskiy,86,RU,1627354399,83,69.3833,178.4167,40.69,9.62
91,kudahuvadhoo,100,MV,1627354399,73,2.6708,72.8944,81.64,8.03
92,lelydorp,96,SR,1627354400,90,5.7,-55.2333,78.94,2.42
93,samfya,83,ZM,1627354400,72,-11.3649,29.5565,50.13,10.67
94,sampit,52,ID,1627354400,56,-2.5333,112.95,88.38,3.53
95,visby,74,SE,1627354401,83,57.6409,18.296,71.94,9.22
96,suntar,32,RU,1627354401,37,62.1444,117.6319,88.2,2.82
97,kavieng,43,PG,1627354401,65,-2.5744,150.7967,85.12,4.32
98,ilulissat,99,GL,1627354401,90,69.2167,-51.1,45.1,6.89
99,linhares,15,BR,1627354402,89,-19.3911,-40.0722,64.18,2.35
100,bengkulu,15,ID,1627354297,57,-3.8004,102.2655,83.82,1.54
101,bethel,2,US,1627354402,85,41.3712,-73.414,74.75,3.31
102,lensk,5,RU,1627354402,31,60.7253,114.9278,88.84,5.95
103,charters towers,0,US,1627354403,92,38.5736,-83.4333,76.68,4.79
104,comodoro rivadavia,60,BR,1627354335,50,-13.6631,-59.7858,73.36,2.89
105,ancud,26,CL,1627354403,80,-41.8697,-73.8203,40.53,4.7
106,skegness,96,GB,1627354403,85,53.1436,0.3363,62.58,7.14
107,mehran,6,IR,1627354403,11,33.1222,46.1646,101.68,5.01
108,hit,6,IQ,1627354404,20,33.6416,42.8251,95.68,10.54
109,nahrin,3,AF,1627354404,17,36.0649,69.1334,88.59,4.79
110,karratha,91,AU,1627354404,56,-20.7377,116.8463,77.41,11.21
111,jurm,1,AF,1627354264,26,36.8648,70.8342,81.91,1.48
112,faanui,53,PF,1627354256,76,-16.4833,-151.75,78.37,9.89
113,nalut,0,LY,1627354405,30,30.3333,10.85,77.81,14.88
114,vestmanna,90,FO,1627354405,100,62.1564,-7.1664,49.12,5.75
115,port elizabeth,9,CD,1627354397,54,-7.0349,29.7638,65.1,4.14
116,mahibadhoo,86,MV,1627354405,73,3.7833,72.9667,82.47,10.87
117,ambilobe,48,MG,1627354405,74,-13.2,49.05,65.66,3.78
118,atuona,36,PF,1627354406,75,-9.8,-139.0333,77.47,21.59
119,mitchell,9,US,1627354406,33,43.7094,-98.0298,87.6,13.15
120,bluff,22,NZ,1627354406,71,-46.6,168.3333,52.81,21.34
121,candido de abreu,99,CO,1627354406,87,1.2508,-75.6013,72.63,1.83
122,ahuimanu,40,US,1627354407,69,21.4447,-157.8378,83.34,13.8
123,banjar,11,ID,1627354407,49,-8.19,114.9675,82.26,2.35
124,pisco,0,PE,1627354407,82,-13.7,-76.2167,64.45,10.36
125,muyezerskiy,100,RU,1627354408,73,63.9333,31.65,55.98,2.33
126,grindavik,90,IS,1627354408,93,63.8424,-22.4338,49.95,12.66
127,amahai,69,ID,1627354408,75,-3.3333,128.9167,82.29,8.28
128,saskylakh,98,RU,1627354408,58,71.9167,114.0833,60.67,9.08
129,virginia beach,90,US,1627354409,92,37.5481,-77.4467,76.3,3.0
130,ivanava,20,BY,1627354409,96,52.1451,25.5365,61.34,7.94
131,kitimat,89,CA,1627354409,86,54.0524,-128.6534,58.91,4.21
132,haines junction,94,US,1627354410,80,59.2286,-135.4441,57.16,2.91
133,port blair,9,CD,1627354410,54,-7.0349,29.7638,65.1,4.14
134,palora,29,EC,1627354410,91,-1.7,-77.9333,63.68,2.73
135,flin flon,75,FR,1627354410,96,48.4982,6.6557,62.67,6.22
136,linguere,27,SN,1627354411,77,15.3953,-15.1193,77.86,12.44
137,bonnyville,71,CA,1627354411,50,54.2668,-110.735,76.8,6.26
138,mehamn,38,NO,1627354411,78,71.0357,27.8492,49.73,6.22
139,hilo,75,US,1627354411,86,19.7297,-155.09,78.53,11.5
140,verkhnevilyuysk,13,RU,1627354412,46,63.4453,120.3167,81.23,6.44
141,port lincoln,9,CD,1627354410,54,-7.0349,29.7638,65.1,4.14
142,santa maria,100,PH,1627354412,86,17.486,120.4348,82.83,19.46
143,san carlos de bariloche,98,ML,1627354344,76,13.3034,-4.8956,78.28,5.61
144,baykit,2,RU,1627354412,34,61.67,96.37,84.87,9.84
145,jalu,0,LY,1627354413,44,29.0331,21.5482,78.48,6.11
146,puerto escondido,0,ES,1627354413,82,36.5939,-6.233,71.74,0.0
147,ibiapina,22,BR,1627354413,68,-3.9233,-40.8894,66.4,3.96
148,coihaique,0,CL,1627354263,75,-45.5752,-72.0662,35.55,4.61
149,esperance,75,AU,1627354226,70,-33.8667,121.9,58.84,37.38
150,san patricio,98,ML,1627354344,76,13.3034,-4.8956,78.28,5.61
151,juba,100,SS,1627354414,91,4.8517,31.5825,69.06,2.57
152,kyren,70,RU,1627354414,57,51.6828,102.1408,76.15,1.12
153,alexandria,0,EG,1627354415,78,31.2156,29.9553,75.16,5.75
154,rocha,4,UY,1627354311,92,-34.4833,-54.3333,43.23,5.97
155,east london,100,IS,1627354415,85,65.0,-15.0,47.95,4.43
156,berlevag,43,NO,1627354415,81,70.8578,29.0864,48.52,4.16
157,tuktoyaktuk,75,CA,1627354416,71,69.4541,-133.0374,51.8,6.91
158,magadan,67,RU,1627354416,74,59.5667,150.8,61.68,2.39
159,pulandian,76,CN,1627354416,62,39.3953,121.9669,86.13,5.35
160,tiksi,81,RU,1627354205,89,71.6872,128.8694,37.87,9.64
161,mwanza,0,TZ,1627354417,48,-2.5167,32.9,64.45,17.27
162,puerto ayora,0,ES,1627354417,82,36.5939,-6.233,71.74,0.0
163,san quintin,98,ML,1627354344,76,13.3034,-4.8956,78.28,5.61
164,vostok,99,RU,1627354417,51,46.4856,135.8833,87.4,4.54
165,penapolis,0,BR,1627354321,40,-21.4197,-50.0775,71.62,6.44
166,balaipungut,33,ID,1627354417,57,1.05,101.2833,86.41,3.58
167,ariogala,100,LT,1627354418,88,55.2667,23.4667,69.71,7.45
168,russell,40,US,1627354418,91,32.3502,-85.1999,83.43,3.44
169,evensk,94,RU,1627354418,70,61.95,159.2333,60.53,4.25
170,andrychow,66,PL,1627354275,84,49.855,19.3383,68.09,2.66
171,mantua,61,IT,1627354419,83,45.1667,10.7833,72.64,2.01
172,qaanaaq,100,GL,1627354419,87,77.484,-69.3632,42.21,9.37
173,oktyabrskoye,42,RU,1627354419,93,43.0645,44.7417,66.34,4.47
174,yar-sale,68,RU,1627354420,58,66.8333,70.8333,54.86,8.16
175,pangai,75,TO,1627354420,69,-19.8,-174.35,80.71,4.61
176,houma,63,US,1627354355,90,29.5958,-90.7195,84.2,1.01
177,camocim,44,BR,1627354420,79,-2.9022,-40.8411,77.11,12.68
178,cayenne,0,GF,1627354420,83,4.9333,-52.3333,82.09,3.0
179,sheltozero,54,RU,1627354421,89,61.3667,35.3667,61.2,2.37
180,toora-khem,100,RU,1627354421,85,52.4675,96.11,65.89,2.15
181,sayyan,88,YE,1627354421,66,15.1718,44.3244,63.03,2.51
182,chaihe,100,CN,1627354422,46,44.7667,129.7,90.63,4.0
183,broome,34,US,1627354422,78,42.2506,-75.833,70.02,2.39
184,turukhansk,38,RU,1627354422,46,65.8167,87.9833,82.02,17.94
185,hrebinka,27,UA,1627354422,59,50.1171,32.4361,65.39,5.3
186,abha,0,SA,1627354423,68,18.2164,42.5053,66.02,0.0
187,nome,90,US,1627354340,93,64.5011,-165.4064,50.07,11.5
188,umea,89,SE,1627354423,100,63.8284,20.2597,56.91,1.14
189,srednekolymsk,96,RU,1627354423,44,67.45,153.6833,56.44,18.43
190,half moon bay,100,LR,1627354423,90,6.3807,-10.6953,74.79,9.78
191,turtas,69,RU,1627354424,61,58.9417,69.1325,61.54,7.56
192,maria chiquita,1,ES,1627354424,93,37.7102,-2.1645,61.3,1.81
193,chicama,65,PE,1627354424,86,-7.8447,-79.1469,65.52,6.24
194,severo-kurilsk,78,RU,1627354425,87,50.6789,156.125,61.56,9.8
195,mufumbwe,88,ZM,1627354425,72,-13.6833,24.8,43.68,5.06
196,caravelas,4,BR,1627354425,91,-17.7125,-39.2481,68.29,4.76
197,gamba,93,GA,1627354293,88,-2.65,10.0,71.08,2.59
198,sorong,47,ID,1627354426,70,-0.8833,131.25,84.85,8.08
199,isangel,75,VU,1627354426,61,-19.55,169.2667,80.71,5.75
200,bambous virieux,80,MU,1627354426,80,-20.2567,57.4061,67.15,12.12
201,san luis,98,ML,1627354344,76,13.3034,-4.8956,78.28,5.61
202,mikhaylov,43,RU,1627354426,70,54.2292,39.0186,59.63,3.04
203,airai,72,TL,1627354427,27,-8.9266,125.4092,76.66,5.3
204,sao joao da barra,100,IN,1627354427,75,20.5113,76.2129,75.56,17.45
205,provideniya,90,RU,1627354427,81,64.3833,-173.3,50.11,11.18
206,chokurdakh,100,RU,1627354427,63,70.6333,147.9167,45.05,13.29
207,banda aceh,100,IN,1627354428,80,25.4833,80.3333,83.84,10.94
208,lagos,96,NG,1627354428,78,6.5833,3.75,77.32,6.8
209,narrabri,10,AU,1627354428,42,-30.3167,149.7833,65.52,12.66
210,maraba,18,BR,1627354429,55,-5.3686,-49.1178,72.99,1.7
211,komsomolskiy,1,UZ,1627354429,27,40.4272,71.7189,88.52,9.22
212,ostrovnoy,100,RU,1627354429,85,68.0531,39.5131,46.08,22.35
213,uaua,47,BR,1627354429,91,-9.8414,-39.4817,65.75,10.47
214,erdenet,88,MN,1627354430,54,49.0333,104.0833,66.92,2.66
215,iquique,23,CL,1627354284,77,-20.2208,-70.1431,59.04,3.06
216,ponta do sol,96,PT,1627354430,89,38.7333,-28.2667,65.91,9.13
217,venice,75,US,1627354430,89,27.0998,-82.4543,83.05,5.75
218,college,1,US,1627354431,49,64.8569,-147.8028,71.58,14.97
219,kahului,40,US,1627354431,77,20.8947,-156.47,83.46,25.32
220,newport,100,GB,1627354316,89,51.5877,-2.9984,65.68,6.82
221,ginda,94,IN,1627354431,88,30.6945,78.4932,72.28,3.65
222,san policarpo,98,ML,1627354344,76,13.3034,-4.8956,78.28,5.61
223,georgetown,40,MY,1627354159,80,5.4112,100.3354,85.98,1.99
224,osakarovka,10,KZ,1627354432,48,50.565,72.5692,60.71,5.26
225,norman wells,81,US,1627354432,76,35.2226,-97.4395,78.87,1.01
226,chapais,100,CA,1627354432,91,49.7834,-74.8492,51.58,6.82
227,alice springs,1,US,1627354433,89,27.7523,-98.0697,83.32,8.05
228,itarema,10,BR,1627354433,80,-2.9248,-39.9167,78.01,14.32
229,mount isa,81,GB,1627354433,86,53.6597,-1.8537,60.33,4.23
230,paamiut,100,GL,1627354434,94,61.994,-49.6678,44.74,11.97
231,semey,0,KZ,1627354434,56,50.4111,80.2275,68.22,13.42
232,acajutla,2,SV,1627354434,83,13.5928,-89.8275,80.8,4.03
233,ola,44,RU,1627354225,72,59.5833,151.2833,62.76,3.69
234,prince rupert,2,CA,1627354435,40,52.9669,-108.3847,75.36,5.88
235,kyaikto,100,MM,1627354435,92,17.3,97.0167,77.09,3.31
236,novaya lyalya,4,RU,1627354435,69,55.9167,38.3333,67.28,2.55
237,egvekinot,100,RU,1627354435,91,66.3167,-179.1667,46.04,5.01
238,antigonish,35,CA,1627354436,96,45.6169,-61.9986,67.35,1.99
239,kamen-na-obi,0,RU,1627354436,51,53.7884,81.3423,64.53,8.59
240,viedma,99,AR,1627354436,65,-40.8135,-62.9967,42.8,23.62
241,awbari,10,LY,1627354437,21,26.5921,12.7805,79.99,7.61
242,new richmond,100,LR,1627354381,95,6.6518,-10.5932,72.84,4.72
243,marquette,35,US,1627354437,78,46.5333,-87.6335,68.36,3.47
244,charlestown,0,AU,1627354437,51,-32.95,151.6667,69.12,1.99
245,boyolangu,61,ID,1627354437,60,-8.1181,111.8935,83.08,7.7
246,svetlyy,68,RU,1627354438,95,54.675,20.1347,62.65,5.41
247,kattivakkam,96,IN,1627354438,59,13.2167,80.3167,86.09,17.02
248,kimry,16,RU,1627354438,71,56.8667,37.35,60.75,3.31
249,kytmanovo,36,RU,1627354439,57,53.4593,85.4479,64.4,10.87
250,joshimath,35,IN,1627354439,69,30.5667,79.5667,80.92,2.48
251,victoria,99,HK,1627354221,79,22.2855,114.1577,93.96,5.99
252,enshi,30,CN,1627354202,72,30.3,109.4833,85.77,1.54
253,saint-augustin,100,CA,1627354439,92,51.226,-58.6502,57.83,9.06
254,axim,100,GH,1627354209,78,4.8699,-2.2405,76.24,9.28
255,cockburn town,6,AU,1627354440,27,-32.0833,141.0,65.32,30.02
256,constitucion,0,CL,1627354440,67,-35.3333,-72.4167,44.74,12.93
257,sitka,84,US,1627354440,77,57.0531,-135.33,59.11,4.43
258,anadyr,75,RU,1627354440,93,64.75,177.4833,52.3,8.01
259,conde,20,BR,1627354441,94,-7.2597,-34.9075,72.86,4.61
260,olinda,75,BR,1627354441,88,-8.0089,-34.8553,71.33,4.61
261,morehead,1,US,1627354303,94,37.2711,-87.1764,77.85,0.0
262,lasa,100,IT,1627354441,96,46.6166,10.7002,62.06,1.52
263,aklavik,100,CA,1627354442,84,68.2191,-135.0107,61.52,3.4
264,concepcion del uruguay,0,CL,1627354320,81,-36.827,-73.0498,42.6,3.44
265,moanda,45,GA,1627354442,85,-1.5575,13.2178,68.09,2.42
266,kunjah,100,PK,1627354443,84,32.5285,73.9737,82.44,11.07
267,taoudenni,0,ML,1627354443,8,22.6783,-3.9836,96.55,4.45
268,ribeira grande,75,ES,1627354443,95,42.7461,-8.4439,63.25,0.0
269,matagami,1,CA,1627354444,93,49.7502,-77.6328,50.11,0.0
270,asosa,100,ET,1627354444,88,10.0667,34.5333,57.13,4.25
271,iqaluit,75,CA,1627354265,87,63.7506,-68.5145,47.93,0.0
272,yulara,8,AU,1627354444,14,-25.2406,130.9889,78.64,20.71
273,horodyshche,91,UA,1627354445,56,49.2849,31.4451,69.51,5.08
274,hobyo,95,SO,1627354445,72,5.3505,48.5268,76.82,22.32
275,kaitangata,8,NZ,1627354206,49,-46.2817,169.8464,55.92,8.1
276,krasnyy yar,25,RU,1627354445,79,54.5678,31.4333,61.86,5.82
277,lagoa,100,PT,1627354445,86,39.05,-27.9833,70.9,13.0
278,khandyga,69,RU,1627354446,40,62.6667,135.6,78.51,6.44
279,jacareacanga,47,BR,1627354446,53,-6.2222,-57.7528,73.65,1.5
280,vardo,43,NO,1627354446,86,70.3705,31.1107,44.8,2.37
281,clyde river,0,US,1627354447,74,41.3042,-82.9752,76.55,4.85
282,baillif,100,GP,1627354447,80,16.0202,-61.7463,78.3,10.56
283,porto novo,20,PT,1627354305,90,41.1496,-8.611,62.96,1.99
284,saldanha,0,ZA,1627354447,91,-33.0117,17.9442,50.05,9.95
285,petropavlovsk-kamchatskiy,75,RU,1627354447,57,53.0452,158.6483,73.99,8.95
286,yerbogachen,4,RU,1627354448,38,61.2767,108.0108,85.05,8.16
287,veraval,100,IN,1627354448,85,20.9,70.3667,81.9,22.06
288,farah,68,AF,1627354448,14,32.5,62.5,90.5,10.09
289,namatanai,23,PG,1627354448,67,-3.6667,152.4333,84.7,5.46
290,lavrentiya,100,RU,1627354449,99,65.5833,-171.0,44.89,4.18
291,pevek,86,RU,1627354217,88,69.7008,170.3133,36.46,18.61
292,ajaccio,0,FR,1627354449,73,42.0,8.9167,71.76,6.91
293,aitape,89,PG,1627354449,69,-3.1374,142.3475,85.84,6.69
294,bonavista,1,CA,1627354450,93,48.6499,-53.1147,57.2,13.2
295,fortuna,90,US,1627354450,90,40.5982,-124.1573,56.86,9.22
296,prado,14,BR,1627354450,87,-17.3411,-39.2208,69.31,5.55
297,hasaki,23,JP,1627354450,74,35.7333,140.8333,81.28,19.95
298,touros,5,BR,1627354451,89,-5.1989,-35.4608,72.5,8.7
299,qeshm,77,IR,1627354451,73,26.9581,56.2719,91.27,4.56
300,nantucket,90,US,1627354222,98,41.2835,-70.0995,75.0,10.36
301,grong,57,NO,1627354451,65,64.4654,12.3149,63.05,5.14
302,maniitsoq,100,GL,1627354451,78,65.4167,-52.9,51.84,14.81
303,hofn,100,IS,1627354452,91,64.2539,-15.2082,51.85,7.02
304,vagay,100,RU,1627354452,70,57.9375,69.0217,56.97,5.5
305,saint-georges,20,GD,1627354428,89,12.0564,-61.7485,80.28,6.91
306,qaqortoq,79,GL,1627354452,95,60.7167,-46.0333,44.42,8.39
307,madera,11,US,1627354280,27,37.1666,-119.8343,91.49,1.99
308,praya,20,CV,1627354453,83,14.9215,-23.5087,75.74,6.91
309,meulaboh,65,ID,1627354281,69,4.1363,96.1285,83.75,1.41
310,tongliao,38,CN,1627354453,52,43.6125,122.2653,86.27,9.08
311,bilma,95,NE,1627354453,41,18.6853,12.9164,89.85,6.58
312,san jeronimo,98,ML,1627354454,76,13.3034,-4.8956,78.28,5.61
313,galesong,40,ID,1627354454,55,-5.3166,119.3661,82.42,1.01
314,poum,49,NC,1627354454,64,-20.2333,164.0167,71.92,8.52
315,mapalad,94,PH,1627354455,77,15.4333,121.1,85.01,13.44
316,marzuq,86,YE,1627354455,75,14.4,46.4667,72.93,6.33
317,merauke,100,ID,1627354455,75,-8.4667,140.3333,80.01,11.3
318,san cristobal,98,ML,1627354454,76,13.3034,-4.8956,78.28,5.61
319,locri,0,IT,1627354455,48,38.2414,16.2623,78.17,2.59
320,yangjiang,87,CN,1627354456,67,21.85,111.9667,92.95,6.38
321,lufilufi,32,WS,1627354456,72,-13.8745,-171.5986,83.98,12.88
322,waingapu,35,ID,1627354456,53,-9.6567,120.2641,86.13,12.33
323,saint-pierre,75,RE,1627354457,75,-21.3393,55.4781,65.88,6.91
324,bodden town,100,GB,1627354457,89,51.1954,-2.5161,62.29,2.95
325,aykhal,35,RU,1627354457,34,66.0,111.5,84.09,5.48
326,nyuksenitsa,18,RU,1627354457,92,60.4128,44.2397,46.47,4.99
327,fairbanks,1,US,1627354261,48,64.8378,-147.7164,71.6,14.97
328,dicabisagan,86,PH,1627354458,58,17.0818,122.4157,91.02,4.32
329,zaykovo,44,RU,1627354458,63,57.5613,62.7568,61.74,9.33
330,puro,98,PH,1627354458,71,12.4841,123.3827,86.43,24.96
331,padang,8,ID,1627354459,68,-0.9492,100.3543,86.05,2.68
332,kosa,72,RU,1627354459,93,59.9445,54.9977,48.56,10.36
333,santa cruz,100,PH,1627354459,86,17.486,120.4348,82.83,19.46
334,massakory,100,TD,1627354459,77,12.996,15.7293,78.66,8.16
335,rawson,86,AR,1627354249,73,-43.3002,-65.1023,42.24,32.93
336,vakhrushev,93,RU,1627354460,80,48.9833,142.9667,70.65,10.49
337,emba,83,KZ,1627354460,38,48.8264,58.1442,72.84,5.75
338,thinadhoo,100,MV,1627354342,72,0.5333,72.9333,81.37,5.32
339,burton,48,US,1627354460,79,42.9995,-83.6163,76.55,7.85
340,grand river south east,24,US,1627354461,28,38.8755,-109.5012,86.59,4.16
341,bendigo,51,AU,1627354461,51,-36.7667,144.2833,62.85,3.0
342,pangnirtung,84,CA,1627354461,95,66.1451,-65.7125,49.15,0.65
343,eyl,48,SO,1627354461,57,7.9803,49.8164,78.55,18.95
344,kuusamo,0,FI,1627354462,87,65.9667,29.1833,50.04,2.3
345,manakara,44,MG,1627354462,95,-22.1333,48.0167,59.25,8.93
346,oistins,13,BB,1627354445,75,13.0667,-59.5333,79.88,14.18
347,martapura,20,ID,1627354462,66,-3.4167,114.85,87.89,6.91
348,colonelganj,94,IN,1627354462,81,27.1333,81.7,84.31,5.06
349,amapa,64,BR,1627354463,97,1.0,-52.0,70.21,2.21
350,vao,15,NC,1627354463,60,-22.6667,167.4833,68.38,15.37
351,husavik,91,IS,1627354463,81,66.0449,-17.3389,49.91,2.39
352,kelvington,1,CA,1627354464,45,52.1667,-103.5343,73.06,4.34
353,beisfjord,84,NO,1627354464,70,68.3751,17.5988,56.35,4.41
354,paita,73,PE,1627354464,83,-5.0892,-81.1144,68.07,15.41
355,polovinnoye,35,RU,1627354464,61,54.7914,65.9864,60.75,10.76
356,naze,100,JP,1627354280,82,28.3667,129.4833,85.12,12.59
357,taywarah,59,AF,1627354465,29,33.35,64.4167,64.8,9.62
358,wasilla,1,US,1627354465,57,61.5814,-149.4394,69.37,0.0
359,ossora,100,RU,1627354465,65,59.2353,163.0719,65.12,16.33
360,nouadhibou,5,MR,1627354466,85,20.931,-17.0347,69.87,20.76
361,necochea,95,AR,1627354466,69,-38.5473,-58.7368,38.03,21.9
362,surt,0,LY,1627354466,63,31.2089,16.5887,77.88,12.8
363,port-gentil,90,GA,1627354466,81,-0.7193,8.7815,74.23,10.18
364,muisne,90,EC,1627354467,86,0.6,-80.0333,75.04,7.02
365,vila velha,22,PT,1627354312,91,42.0304,-8.1588,52.93,2.37
366,grande prairie,99,DE,1627354467,95,53.5833,10.3833,64.15,5.77
367,salalah,98,OM,1627354243,94,17.0151,54.0924,76.77,12.28
368,yenagoa,97,NG,1627354468,78,4.9247,6.2642,73.22,4.29
369,suwalki,81,PL,1627354468,97,54.1118,22.9309,61.63,5.5
370,coquimbo,0,CL,1627354468,87,-29.9533,-71.3436,51.53,6.91
371,san borja,98,ML,1627354344,76,13.3034,-4.8956,78.28,5.61
372,synya,96,RU,1627354468,94,65.3718,58.0387,43.23,6.17
373,mollendo,94,PE,1627354469,89,-17.0231,-72.0147,60.01,11.12
374,cowra,64,AU,1627354469,60,-33.8333,148.6833,57.27,15.68
375,balkhash,0,KZ,1627354469,38,46.844,74.9804,74.01,22.37
376,zlitan,0,LY,1627354470,79,32.4674,14.5687,75.42,8.93
377,san juan,98,ML,1627354344,76,13.3034,-4.8956,78.28,5.61
378,sur,53,OM,1627354470,51,22.5667,59.5289,92.01,14.45
379,pasaje,45,EC,1627354470,93,-3.3333,-79.8167,71.98,0.49
380,juneau,66,US,1627354471,100,58.3019,-134.4197,60.1,1.23
381,toamasina,75,MG,1627354471,94,-18.1667,49.3833,64.4,6.91
382,kalabo,100,ZM,1627354471,56,-14.97,22.6814,47.64,6.17
383,homer,41,US,1627354471,73,59.6425,-151.5483,63.09,8.99
384,soyo,97,AO,1627354472,89,-6.1349,12.3689,71.49,4.0
385,kashi,0,CN,1627354472,18,39.4547,75.9797,88.81,6.71
386,kigoma,20,TZ,1627354472,100,-4.8769,29.6267,63.19,0.0
387,lorengau,83,PG,1627354473,76,-2.0226,147.2712,82.92,3.74
388,sola,59,VU,1627354473,77,-13.8833,167.55,80.53,16.26
389,gizo,23,SB,1627354473,74,-8.103,156.8419,83.43,7.2
390,dyurtyuli,87,RU,1627354473,56,55.4911,54.8688,61.9,10.98
391,sidney,0,AU,1627354394,47,-33.8679,151.2073,68.36,1.99
392,marsa matruh,0,MT,1627354474,88,35.8792,14.4953,78.28,4.61
393,van,0,TR,1627354474,33,38.4924,43.3831,70.59,5.46
394,shimoda,100,JP,1627354474,87,34.6667,138.95,82.51,5.95
395,port hedland,9,CD,1627354397,54,-7.0349,29.7638,65.1,4.14
396,baghdad,0,IQ,1627354475,30,33.3406,44.4009,87.71,8.05
397,goderich,30,CA,1627354422,88,43.7501,-81.7165,67.91,1.14
398,malartic,57,CA,1627354475,87,48.1335,-78.1328,57.31,5.06
399,cachoeira do sul,10,BR,1627354475,97,-12.6183,-38.9558,66.7,1.97
400,solnechnyy,100,RU,1627354476,83,50.7214,136.6319,75.69,2.71
401,guerrero negro,93,MX,1627354476,96,17.6667,-100.0,66.56,4.92
402,cozumel,0,MX,1627354476,88,20.5083,-86.9458,82.11,5.99
403,eydhafushi,91,MV,1627354476,75,5.1033,73.0708,82.24,14.34
404,tateyama,100,JP,1627354477,86,34.9833,139.8667,80.62,17.38
405,nuuk,53,GL,1627354477,86,64.1835,-51.7216,48.09,10.98
406,kirakira,32,SB,1627354477,72,-10.4544,161.9205,84.04,10.36
407,copiapo,0,CL,1627354399,56,-27.3667,-70.3333,49.69,0.69
408,belance,98,PH,1627354478,76,16.1833,121.25,77.49,10.87
409,sibolga,55,ID,1627354478,64,1.7427,98.7792,85.39,3.0
410,sosnovo-ozerskoye,56,RU,1627354478,56,52.5249,111.5418,68.59,10.56
411,port hardy,9,CD,1627354410,54,-7.0349,29.7638,65.1,4.14
412,geraldton,90,AU,1627354479,59,-28.7667,114.6,66.61,24.16
413,miles city,1,US,1627354479,77,35.1855,-120.7032,71.47,1.01
414,abu dhabi,100,IN,1627354479,88,24.6,72.7,68.23,13.2
415,orbetello,100,IT,1627354479,83,42.4408,11.2196,79.79,6.91
416,leninskoye,0,KZ,1627354480,24,41.7589,69.3864,83.98,2.73
417,huarmey,47,PE,1627354480,87,-10.0681,-78.1522,65.26,9.04
418,zeya,98,RU,1627354480,49,53.75,127.2667,81.73,5.48
419,uyskoye,66,RU,1627354480,51,54.3775,60.0047,59.83,10.51
420,lamar,1,US,1627354481,75,33.6668,-95.5836,86.52,5.75
421,longjiang,100,CN,1627354481,94,47.3303,123.1836,70.23,6.46
422,itaituba,88,BR,1627354272,57,-4.2761,-55.9836,73.78,1.97
423,tahe,93,CN,1627354481,54,52.3333,124.7333,78.15,6.78
424,roma,17,US,1627354482,82,43.2128,-75.4557,72.84,0.74
425,ponta delgada,96,PT,1627354482,89,38.7333,-28.2667,65.91,9.13
426,kruisfontein,11,ZA,1627354482,27,-34.0033,24.7314,67.89,19.33
427,santa helena de goias,100,PH,1627354482,86,17.486,120.4348,82.83,19.46
428,dukat,100,RU,1627354483,81,62.55,155.55,49.78,6.33
429,bosaso,40,SO,1627354483,40,11.2842,49.1816,86.74,19.24
430,nanakuli,90,US,1627354483,61,21.3906,-158.1547,83.57,10.36
431,batagay-alyta,77,RU,1627354484,63,67.8006,130.4114,58.55,16.11
432,maxixe,2,MZ,1627354484,71,-23.8597,35.3472,61.48,5.48
433,santa cruz del sur,100,PH,1627354484,86,17.486,120.4348,82.83,19.46
434,goba,100,ET,1627354484,95,7.0167,39.9833,49.21,2.75
435,tokmak,0,UA,1627354485,61,47.2514,35.7058,67.95,8.3
436,ganzhou,20,CN,1627354485,54,28.8184,115.4327,93.13,8.43
437,masunga,0,BW,1627354485,78,-20.6246,27.4488,41.52,9.89
438,vestmannaeyjar,100,IS,1627354486,80,63.4427,-20.2734,50.7,14.07
439,sovetskiy,100,RU,1627354486,98,61.3614,63.5842,51.37,4.29
440,fort-shevchenko,100,KZ,1627354486,45,44.5086,50.263,77.92,26.82
441,port-cartier,90,CA,1627354486,99,50.0334,-66.8654,62.82,5.41
442,kerman,6,IR,1627354332,24,30.2832,57.0788,78.66,4.61
443,lazaro cardenas,100,DO,1627354487,88,19.4558,-71.3261,75.0,3.31
444,durban,15,ZA,1627354487,81,-29.8579,31.0292,53.02,5.01
445,gunjur,43,GM,1627354487,80,13.2019,-16.7339,79.2,11.03
446,urucara,59,BR,1627354488,66,-2.5364,-57.76,75.15,2.62
447,bayji,0,IQ,1627354488,19,34.9311,43.487,95.92,8.12
448,tura,100,IN,1627354488,89,25.5198,90.2201,80.87,5.01
449,kasongo,86,CD,1627354488,42,-4.45,26.6667,66.31,4.05
450,kurilsk,99,RU,1627354489,90,45.2333,147.8833,66.97,7.7
451,kerrville,1,US,1627354489,65,30.0474,-99.1403,82.45,5.75
452,nishihara,75,JP,1627354489,84,26.1842,127.7558,87.08,16.11
453,teahupoo,20,PF,1627354342,75,-17.8333,-149.2667,76.96,5.64
454,rehoboth,0,NA,1627354490,42,-23.3167,17.0833,47.16,5.97
455,bayan,100,CN,1627354490,55,46.0833,127.4,88.47,12.24
456,kolokani,100,ML,1627354490,82,13.5728,-8.0339,77.4,5.97
457,xichang,69,CN,1627354490,69,27.8964,102.2634,76.48,2.15
458,champerico,100,GT,1627354491,74,14.3,-91.9167,82.35,1.45
459,santa marta,100,PH,1627354484,86,17.486,120.4348,82.83,19.46
460,klaksvik,100,FO,1627354491,99,62.2266,-6.589,50.92,7.85
461,jihlava,88,CZ,1627354491,93,49.3961,15.5912,63.32,4.54
462,teya,37,RU,1627354492,46,60.3778,92.6267,80.42,8.81
463,barcelos,3,PT,1627354353,91,41.5388,-8.6151,63.28,3.15
464,marystown,7,CA,1627354492,100,47.1666,-55.1483,61.86,7.92
465,arlit,92,NE,1627354492,43,18.7369,7.3853,90.14,18.39
466,sangmelima,86,CM,1627354493,89,2.9333,11.9833,66.24,3.89
467,dakar,63,SN,1627354245,83,14.6937,-17.4441,79.68,14.63
468,daru,85,PG,1627354493,80,-9.0763,143.2092,78.98,16.17
469,porbandar,100,IN,1627354341,85,21.6422,69.6093,82.29,21.59
470,luwuk,61,ID,1627354493,60,-0.9516,122.7875,84.11,8.5
471,murray bridge,1,US,1627354494,39,40.6669,-111.888,93.15,5.01
472,okhotsk,23,RU,1627354494,70,59.3833,143.3,70.32,7.0
473,tarakan,20,ID,1627354494,78,3.3,117.6333,81.9,4.61
474,gazanjyk,5,TM,1627354494,58,39.2446,55.5154,85.46,0.69
475,dandong,10,CN,1627354495,61,40.1292,124.3947,89.02,1.92
476,garden city,81,DE,1627354495,91,53.688,12.0492,64.74,6.91
477,mahebourg,75,MU,1627354495,88,-20.4081,57.7,68.29,10.36
478,mporokoso,89,ZM,1627354496,59,-9.3727,30.125,49.66,9.95
479,kolondieba,29,ML,1627354496,90,11.0882,-6.8926,72.99,4.05
480,bur gabo,94,DK,1627354496,96,56.365,8.4267,63.54,5.19
481,livingston,54,GB,1627354496,90,55.9029,-3.5226,57.85,4.0
482,inhambane,2,MZ,1627354497,67,-23.865,35.3833,63.21,6.62
483,sula,100,PH,1627354497,69,15.4573,120.3955,86.77,7.09
484,omsukchan,100,RU,1627354497,80,62.5333,155.8,51.76,5.08
485,belle fourche,1,US,1627354375,72,38.2859,-91.7204,76.26,3.44
486,garissa,73,KE,1627354457,65,-0.4536,39.6401,71.47,16.64
487,novaya ladoga,4,RU,1627354498,69,55.9167,38.3333,68.29,2.55
488,chake chake,18,CN,1627354498,74,23.86,103.046,73.96,1.5
489,arcachon,20,FR,1627354498,94,44.5875,-1.0519,59.32,0.0
490,safaga,1,EG,1627354499,46,26.7292,33.9365,85.95,10.67
491,armacao dos buzios,0,BR,1627354499,77,-27.7496,-48.5071,68.04,1.14
492,laguna,23,US,1627354499,36,38.421,-121.4238,89.46,4.0
493,boa vista,99,CM,1627354500,89,4.4296,8.9742,73.76,5.37
494,tamale,98,GH,1627354500,79,9.4008,-0.8393,74.35,8.41
495,zyryanka,94,RU,1627354500,42,65.75,150.85,59.63,15.57
496,pascagoula,4,US,1627354500,92,30.3658,-88.5561,84.06,5.86
497,puerto penasco,0,ES,1627354501,82,36.5939,-6.233,71.74,0.0
498,praia da vitoria,20,CV,1627354453,83,14.9215,-23.5087,75.74,6.91
499,tucuman,75,AR,1627354501,58,-26.8241,-65.2226,57.2,0.0
500,erice,1,IT,1627354501,70,38.037,12.5865,73.99,10.18
501,grand-santi,66,GF,1627354502,98,4.25,-54.3833,71.71,2.33
502,talnakh,99,RU,1627354502,47,69.4865,88.3972,81.36,13.6
503,havoysund,35,NO,1627354504,76,70.9963,24.6622,52.63,5.88
504,tall kayf,100,IT,1627354504,94,46.7397,11.2269,55.89,0.78
505,kriva palanka,72,HR,1627354505,90,45.392,14.2731,72.05,2.59
506,lompoc,90,US,1627354505,83,34.6391,-120.4579,74.21,8.05
